<?xml version="1.0" encoding="UTF-8"?>
<kml xmlns="http://earth.google.com/kml/2.2">
<Document>
  <name>Taipei YouBike bicycle-sharing stations</name>
  <description><![CDATA[All 166 stations retrieved on 19/06/2014 from the YouBike API http://its.taipei.gov.tw/atis_index/aspx/Youbike.aspx?Mode=1
The official map is a little hard to use. This one makes it easy to get directions to any station.]]></description>
  <Placemark>
    <name>捷運國父紀念館站(2號出口)</name>
    <Snippet>忠孝東路四段/光復南路口(西南側)</Snippet>
    <description><![CDATA[捷運國父紀念館站(2號出口)<br>
忠孝東路四段/光復南路口(西南側)<br>
MRT S.Y.S Memorial Hall Sta. (Exit 2.)<br>
Sec,4. Zhongxiao E.Rd/GuangFu S. Rd]]></description>
    <Point>
      <coordinates>121.556945,25.041,0.000000</coordinates>
    </Point>
  </Placemark>
  <Placemark>
    <name>台北市政府</name>
    <Snippet>台北市政府東門(松智路) </Snippet>
    <description><![CDATA[台北市政府<br>
台北市政府東門(松智路) <br>
Taipei City Hall<br>
Taipei City Government Eastgate (Song Zhi Road)]]></description>
    <Point>
      <coordinates>121.565169,25.0377972,0.000000</coordinates>
    </Point>
  </Placemark>
  <Placemark>
    <name>市民廣場</name>
    <Snippet>市府路/松壽路(西北側) </Snippet>
    <description><![CDATA[市民廣場<br>
市府路/松壽路(西北側) <br>
Citizen Square<br>
The N.W. side of Road Shifu & Road Song Shou.]]></description>
    <Point>
      <coordinates>121.562325,25.0360361,0.000000</coordinates>
    </Point>
  </Placemark>
  <Placemark>
    <name>興雅國中</name>
    <Snippet>松仁路/松仁路95巷(東南側)</Snippet>
    <description><![CDATA[興雅國中<br>
松仁路/松仁路95巷(東南側)<br>
Xingya Jr. High School<br>
]]></description>
    <Point>
      <coordinates>121.568663,25.0365638,0.000000</coordinates>
    </Point>
  </Placemark>
  <Placemark>
    <name>世貿二館</name>
    <Snippet>松智路/松廉路(東北側) </Snippet>
    <description><![CDATA[世貿二館<br>
松智路/松廉路(東北側) <br>
TWTC Exhibition Hall 2<br>
The N.E. side of Road Song Zhi & Road Song Lian.]]></description>
    <Point>
      <coordinates>121.565658,25.0347361,0.000000</coordinates>
    </Point>
  </Placemark>
  <Placemark>
    <name>信義廣場(台北101)</name>
    <Snippet>松智路/信義路(東北側) </Snippet>
    <description><![CDATA[信義廣場(台北101)<br>
松智路/信義路(東北側) <br>
Xinyi Square(Taipei 101)<br>
The N.E. side of Road Song Zhi & Road Xinyi.]]></description>
    <Point>
      <coordinates>121.565619,25.0330388,0.000000</coordinates>
    </Point>
  </Placemark>
  <Placemark>
    <name>世貿三館</name>
    <Snippet>市府路/松壽路(東南側) </Snippet>
    <description><![CDATA[世貿三館<br>
市府路/松壽路(東南側) <br>
TWTC Exhibition Hall 3<br>
The S.E. side of Road Shifu & Road Song Shou.]]></description>
    <Point>
      <coordinates>121.563688,25.0352138,0.000000</coordinates>
    </Point>
  </Placemark>
  <Placemark>
    <name>松德站</name>
    <Snippet>台北市信義區松德路300號</Snippet>
    <description><![CDATA[松德站<br>
台北市信義區松德路300號<br>
Songde<br>
No.300, Songde Rd.(32)]]></description>
    <Point>
      <coordinates>121.574353,25.03159,0.000000</coordinates>
    </Point>
  </Placemark>
  <Placemark>
    <name>台北市災害應變中心</name>
    <Snippet>台北市信義區莊敬路391巷11弄2號</Snippet>
    <description><![CDATA[台北市災害應變中心<br>
台北市信義區莊敬路391巷11弄2號<br>
Emergency Operations Center of Taipei City<br>
No.2, Aly. 11, Ln. 391, Zhuangjing Rd.]]></description>
    <Point>
      <coordinates>121.566116,25.0286611,0.000000</coordinates>
    </Point>
  </Placemark>
  <Placemark>
    <name>三張犁</name>
    <Snippet>光復南路/基隆路一段364巷</Snippet>
    <description><![CDATA[三張犁<br>
光復南路/基隆路一段364巷<br>
Sanchangli<br>
The S.E. side of Road Guangfu South & Ln. 346, Sec. 1, Keelung Rd.]]></description>
    <Point>
      <coordinates>121.55762,25.034937,0.000000</coordinates>
    </Point>
  </Placemark>
  <Placemark>
    <name>臺北醫學大學</name>
    <Snippet>台北醫學大學(吳興街220巷59弄)</Snippet>
    <description><![CDATA[臺北醫學大學<br>
台北醫學大學(吳興街220巷59弄)<br>
Taipei Medical University<br>
Aly. 59, Ln. 220, Wuxing St.]]></description>
    <Point>
      <coordinates>121.561747,25.026679,0.000000</coordinates>
    </Point>
  </Placemark>
  <Placemark>
    <name>福德公園</name>
    <Snippet>大道路/福德街路口北西側</Snippet>
    <description><![CDATA[福德公園<br>
大道路/福德街路口北西側<br>
Fude Park<br>
The N.W. side of Road Dadao & St. Fude.]]></description>
    <Point>
      <coordinates>121.58367,25.03809,0.000000</coordinates>
    </Point>
  </Placemark>
  <Placemark>
    <name>榮星花園</name>
    <Snippet>五常街/龍江路口(西南側)</Snippet>
    <description><![CDATA[榮星花園<br>
五常街/龍江路口(西南側)<br>
Rongxing Park<br>
The S.W. side of St.Wuchang & Road Longjiang.]]></description>
    <Point>
      <coordinates>121.54037,25.06424,0.000000</coordinates>
    </Point>
  </Placemark>
  <Placemark>
    <name>饒河夜市</name>
    <Snippet>八德路/松信路(西南側)</Snippet>
    <description><![CDATA[饒河夜市<br>
八德路/松信路(西南側)<br>
Raohe Night Market<br>
The S.W. side of Road Bade & Road SongXiny.]]></description>
    <Point>
      <coordinates>121.571885,25.049845,0.000000</coordinates>
    </Point>
  </Placemark>
  <Placemark>
    <name>松山家商</name>
    <Snippet>林口街/福德街(南東側)</Snippet>
    <description><![CDATA[松山家商<br>
林口街/福德街(南東側)<br>
Songshan Vocational High School<br>
The S.E. side of St. Linkou & St. Fude.]]></description>
    <Point>
      <coordinates>121.579135,25.036084,0.000000</coordinates>
    </Point>
  </Placemark>
  <Placemark>
    <name>民生光復路口</name>
    <Snippet>光復北路/民生東路(西北側)</Snippet>
    <description><![CDATA[民生光復路口<br>
光復北路/民生東路(西北側)<br>
Minsheng & Guangfu Intersection<br>
The N.W. side of Road Guangfu S & Road Minsheng E.]]></description>
    <Point>
      <coordinates>121.55504,25.0584,0.000000</coordinates>
    </Point>
  </Placemark>
  <Placemark>
    <name>社教館</name>
    <Snippet>八德路三段25號前</Snippet>
    <description><![CDATA[社教館<br>
八德路三段25號前<br>
Taipei Cultural Center<br>
No.25, Sec. 3, Bade Rd.]]></description>
    <Point>
      <coordinates>121.552278,25.048268,0.000000</coordinates>
    </Point>
  </Placemark>
  <Placemark>
    <name>中強公園</name>
    <Snippet>松仁路153巷17號對面</Snippet>
    <description><![CDATA[中強公園<br>
松仁路153巷17號對面<br>
Zhongqiang Park<br>
No.17, Ln. 153, Songren Rd]]></description>
    <Point>
      <coordinates>121.56981,25.02863,0.000000</coordinates>
    </Point>
  </Placemark>
  <Placemark>
    <name>捷運科技大樓站</name>
    <Snippet>科技大樓站對面(復興南路2段西側)</Snippet>
    <description><![CDATA[捷運科技大樓站<br>
科技大樓站對面(復興南路2段西側)<br>
MRT Technology Bldg. Sta.<br>
No.235, Sec. 2, Fusing S. Rd.]]></description>
    <Point>
      <coordinates>121.543293,25.025896,0.000000</coordinates>
    </Point>
  </Placemark>
  <Placemark>
    <name>民生敦化路口</name>
    <Snippet>敦化民生路口公車站旁</Snippet>
    <description><![CDATA[民生敦化路口<br>
敦化民生路口公車站旁<br>
Minsheng & Dunhua Intersection<br>
The side of bus stop- Dunhua Minsheng Intersection.]]></description>
    <Point>
      <coordinates>121.548982,25.057985,0.000000</coordinates>
    </Point>
  </Placemark>
  <Placemark>
    <name>松山車站</name>
    <Snippet>松山車站西出口外自行車格內</Snippet>
    <description><![CDATA[松山車站<br>
松山車站西出口外自行車格內<br>
Songshan Rail Sta.<br>
Bicycle parking lot- West exit in Songshan station]]></description>
    <Point>
      <coordinates>121.578095,25.048616,0.000000</coordinates>
    </Point>
  </Placemark>
  <Placemark>
    <name>東新國小</name>
    <Snippet>東新國小側門(東明街62號前)</Snippet>
    <description><![CDATA[東新國小<br>
東新國小側門(東明街62號前)<br>
Dongxin Elementary School<br>
A side entrance of Dongxin Elementery School(front of No. 62, Dongxin St.)]]></description>
    <Point>
      <coordinates>121.602798,25.055074,0.000000</coordinates>
    </Point>
  </Placemark>
  <Placemark>
    <name>信義建國路口</name>
    <Snippet>信義路三段/建國南路二段(西南側)</Snippet>
    <description><![CDATA[信義建國路口<br>
信義路三段/建國南路二段(西南側)<br>
Xinyi & Jianguo Intersection<br>
The N.S. side of Lianyun St. & Sec. 2, Xinyi Rd.]]></description>
    <Point>
      <coordinates>121.537328,25.032981,0.000000</coordinates>
    </Point>
  </Placemark>
  <Placemark>
    <name>永吉松信路口</name>
    <Snippet>松信路/永吉路南西側人行道</Snippet>
    <description><![CDATA[永吉松信路口<br>
松信路/永吉路南西側人行道<br>
Yongji & Songxin Intersection<br>
The sidewalk- the S.W. side of Songxin Rd. & Yongji Rd.]]></description>
    <Point>
      <coordinates>121.57205,25.04543,0.000000</coordinates>
    </Point>
  </Placemark>
  <Placemark>
    <name>捷運昆陽站(1號出口)</name>
    <Snippet>捷運昆陽站1號出口外停車場旁</Snippet>
    <description><![CDATA[捷運昆陽站(1號出口)<br>
捷運昆陽站1號出口外停車場旁<br>
MRT Kunyang Sta. (Exit 1)<br>
The side of parking lots in the MRT Kunyang station (exit 1)]]></description>
    <Point>
      <coordinates>121.592375,25.050142,0.000000</coordinates>
    </Point>
  </Placemark>
  <Placemark>
    <name>捷運南港展覽館站(5號出口)</name>
    <Snippet>研究院路/市民大道路口(西南側)</Snippet>
    <description><![CDATA[捷運南港展覽館站(5號出口)<br>
研究院路/市民大道路口(西南側)<br>
MRT Nangang Exhibition Center Sta. (Exit 5)<br>
The S.W side of Academia Rd. & Shihmin Blvd.]]></description>
    <Point>
      <coordinates>121.61669,25.05469,0.000000</coordinates>
    </Point>
  </Placemark>
  <Placemark>
    <name>五常公園</name>
    <Snippet>松隆路/虎林街30巷口(西南側)</Snippet>
    <description><![CDATA[五常公園<br>
松隆路/虎林街30巷口(西南側)<br>
Wuchang Park<br>
The S.W side of Songlong Rd. & Hulin St.]]></description>
    <Point>
      <coordinates>121.57467,25.04814,0.000000</coordinates>
    </Point>
  </Placemark>
  <Placemark>
    <name>金山愛國路口</name>
    <Snippet>愛國東路/金山南路(西南側)</Snippet>
    <description><![CDATA[金山愛國路口<br>
愛國東路/金山南路(西南側)<br>
Jinshan & Aiguo Intersection<br>
The S.W side of Aiguo St. & Jinshan Rd.]]></description>
    <Point>
      <coordinates>121.52655,25.03164,0.000000</coordinates>
    </Point>
  </Placemark>
  <Placemark>
    <name>基隆長興路口</name>
    <Snippet>基隆路/長興街(東南側)</Snippet>
    <description><![CDATA[基隆長興路口<br>
基隆路/長興街(東南側)<br>
Keelung & Changxing Intersection<br>
The S.W side of Keelung Rd. & Changsing St.]]></description>
    <Point>
      <coordinates>121.544352,25.017054,0.000000</coordinates>
    </Point>
  </Placemark>
  <Placemark>
    <name>辛亥新生路口</name>
    <Snippet>辛亥路/新生南路(高架橋下)</Snippet>
    <description><![CDATA[辛亥新生路口<br>
辛亥路/新生南路(高架橋下)<br>
Xinhai & Xinsheng Intersection<br>
Under the bridge- Sinhai Rd. & Shinsheng S. Rd.]]></description>
    <Point>
      <coordinates>121.53456,25.022413,0.000000</coordinates>
    </Point>
  </Placemark>
  <Placemark>
    <name>捷運六張犁站</name>
    <Snippet>捷運出口外和平東路側</Snippet>
    <description><![CDATA[捷運六張犁站<br>
捷運出口外和平東路側<br>
MRT Liuzhangli Sta.<br>
The outside of the MRT exit and the side of Heping E. Rd.]]></description>
    <Point>
      <coordinates>121.553161,25.023884,0.000000</coordinates>
    </Point>
  </Placemark>
  <Placemark>
    <name>中崙高中</name>
    <Snippet>八德路四段91巷(中崙高中)旁</Snippet>
    <description><![CDATA[中崙高中<br>
八德路四段91巷(中崙高中)旁<br>
Zhonglun High School<br>
The side of Ln. 91, Sec. 4, Bade Rd. ( beside Zhong-Lun High School)]]></description>
    <Point>
      <coordinates>121.56087,25.04878,0.000000</coordinates>
    </Point>
  </Placemark>
  <Placemark>
    <name>捷運行天宮站(1號出口)</name>
    <Snippet>捷運行天宮1號出口後方(松江路側)</Snippet>
    <description><![CDATA[捷運行天宮站(1號出口)<br>
捷運行天宮1號出口後方(松江路側)<br>
MRT Xingtian Temple Sta. (Exit 1)<br>
The side of Songjiang Rd.(the exit 1 of the MRT station of Xingtian Temple)]]></description>
    <Point>
      <coordinates>121.532934,25.058369,0.000000</coordinates>
    </Point>
  </Placemark>
  <Placemark>
    <name>捷運行天宮站(3號出口)</name>
    <Snippet>捷運行天宮站3號出口站外</Snippet>
    <description><![CDATA[捷運行天宮站(3號出口)<br>
捷運行天宮站3號出口站外<br>
MRT Xingtian Temple Sta. (Exit 3)<br>
The outside of the MRT station of Xingtian Temple.]]></description>
    <Point>
      <coordinates>121.533302,25.059978,0.000000</coordinates>
    </Point>
  </Placemark>
  <Placemark>
    <name>臺大資訊大樓</name>
    <Snippet>辛亥路二段(臺大外語學院外)</Snippet>
    <description><![CDATA[臺大資訊大樓<br>
辛亥路二段(臺大外語學院外)<br>
NTU Information Bldg.<br>
Sec. 2, Xinghai Rd. (the outside ofLanguage Center of National Taiwan University)]]></description>
    <Point>
      <coordinates>121.54153,25.02101,0.000000</coordinates>
    </Point>
  </Placemark>
  <Placemark>
    <name>捷運東門站(4號出口)</name>
    <Snippet>信義路/麗水街口</Snippet>
    <description><![CDATA[捷運東門站(4號出口)<br>
信義路/麗水街口<br>
MRT Dongmen Sta. (Exit 4)<br>
Ren’ai Rd. & Lishuei St. ]]></description>
    <Point>
      <coordinates>121.529166,25.0337,0.000000</coordinates>
    </Point>
  </Placemark>
  <Placemark>
    <name>臺灣師範大學(圖書館)</name>
    <Snippet>和平東路/師大路口(北側)</Snippet>
    <description><![CDATA[臺灣師範大學(圖書館)<br>
和平東路/師大路口(北側)<br>
NTNU Library<br>
The N. side of Heping E. Rd. & Shihda Rd.]]></description>
    <Point>
      <coordinates>121.52889,25.02665,0.000000</coordinates>
    </Point>
  </Placemark>
  <Placemark>
    <name>南港世貿公園</name>
    <Snippet>三重路/經貿二路88巷(東北側)</Snippet>
    <description><![CDATA[南港世貿公園<br>
三重路/經貿二路88巷(東北側)<br>
Nangang Park<br>
The N.E. side of Sanchong Rd. & Ln. 88, Jingmao 2nd Rd.]]></description>
    <Point>
      <coordinates>121.61422,25.058,0.000000</coordinates>
    </Point>
  </Placemark>
  <Placemark>
    <name>玉成公園</name>
    <Snippet>玉成街247號前</Snippet>
    <description><![CDATA[玉成公園<br>
玉成街247號前<br>
Yucheng Park<br>
The front of No. 247, Yucheng St.]]></description>
    <Point>
      <coordinates>121.5864,25.04287,0.000000</coordinates>
    </Point>
  </Placemark>
  <Placemark>
    <name>中研公園</name>
    <Snippet>研究院路二段12巷/研究院路二段12巷58弄(西南側)</Snippet>
    <description><![CDATA[中研公園<br>
研究院路二段12巷/研究院路二段12巷58弄(西南側)<br>
Academia Park<br>
The S.W side of Ln. 12, Sec. 2, Academia Rd. & Aly. 58, Ln. 12, Sec. 2, Academia Rd.]]></description>
    <Point>
      <coordinates>121.613706,25.047425,0.000000</coordinates>
    </Point>
  </Placemark>
  <Placemark>
    <name>捷運後山埤站(1號出口)</name>
    <Snippet>中坡北路/忠孝東路五段(西北側)</Snippet>
    <description><![CDATA[捷運後山埤站(1號出口)<br>
中坡北路/忠孝東路五段(西北側)<br>
MRT Houshanpi Sta. (Exit 1)<br>
The S.W side of Jhongsiao E. Rd. & Jhongpo N. Rd.]]></description>
    <Point>
      <coordinates>121.58174,25.04431,0.000000</coordinates>
    </Point>
  </Placemark>
  <Placemark>
    <name>凌雲市場</name>
    <Snippet>研究院路三段68巷/凌雲街(東北側)</Snippet>
    <description><![CDATA[凌雲市場<br>
研究院路三段68巷/凌雲街(東北側)<br>
Linyun Market<br>
The N.E. side of St. Lingyun & Academia Rd.]]></description>
    <Point>
      <coordinates>121.614154,25.035639,0.000000</coordinates>
    </Point>
  </Placemark>
  <Placemark>
    <name>龍門廣場</name>
    <Snippet>忠孝東路/敦化南路(西南側廣場）</Snippet>
    <description><![CDATA[龍門廣場<br>
忠孝東路/敦化南路(西南側廣場）<br>
Longmen Square(Testing)<br>
Sec. 1, Dunhua S. Rd. & Ln. 236, Sec. 1, Dunhua S. Rd.]]></description>
    <Point>
      <coordinates>121.548252,25.040901,0.000000</coordinates>
    </Point>
  </Placemark>
  <Placemark>
    <name>建國農安街口</name>
    <Snippet>建國北路/農安街口(中油旁邊空地)</Snippet>
    <description><![CDATA[建國農安街口<br>
建國北路/農安街口(中油旁邊空地)<br>
Jianguo & Nongan Intersection<br>
(Behind empty area of CPC coporation) Jianguo N. Rd. & Nong’an St.]]></description>
    <Point>
      <coordinates>121.536775,25.065031,0.000000</coordinates>
    </Point>
  </Placemark>
  <Placemark>
    <name>捷運南港軟體園區站(2號出口)</name>
    <Snippet>捷運南港軟體園區站2號出口外</Snippet>
    <description><![CDATA[捷運南港軟體園區站(2號出口)<br>
捷運南港軟體園區站2號出口外<br>
MRT Nangang Software Park Sta. (Exit 2)<br>
The outside of the MRT station exit 2 of Taipei Nangang Exhibition Center]]></description>
    <Point>
      <coordinates>121.616187,25.05973,0.000000</coordinates>
    </Point>
  </Placemark>
  <Placemark>
    <name>捷運公館站(2號出口)</name>
    <Snippet>羅斯福路四段/舟山路(東北側)</Snippet>
    <description><![CDATA[捷運公館站(2號出口)<br>
羅斯福路四段/舟山路(東北側)<br>
MRT Gongguan Sta. (Exit 2)<br>
The N.W. side of Roosevelt Rd.& Sinhai Rd.]]></description>
    <Point>
      <coordinates>121.534538,25.01476,0.000000</coordinates>
    </Point>
  </Placemark>
  <Placemark>
    <name>南港國小</name>
    <Snippet>惠民街/興東街(南側停車場)</Snippet>
    <description><![CDATA[南港國小<br>
惠民街/興東街(南側停車場)<br>
Nangang Elementary School<br>
The opposite of parking lots of exit Singdong St. (Nan-Gang Elementary School)]]></description>
    <Point>
      <coordinates>121.611027,25.05646,0.000000</coordinates>
    </Point>
  </Placemark>
  <Placemark>
    <name>捷運忠孝新生(3號出口)</name>
    <Snippet>捷運忠孝新生(3號出口)</Snippet>
    <description><![CDATA[捷運忠孝新生(3號出口)<br>
捷運忠孝新生(3號出口)<br>
MRT Zhongxiao Xinsheng Sta. (Exit 3) (testing)<br>
The intersection of Sec. 3, Zhongxiao E. Rd. & Ln. 10, Sec. 3, Zhongxiao E. Rd.]]></description>
    <Point>
      <coordinates>121.533862,25.041924,0.000000</coordinates>
    </Point>
  </Placemark>
  <Placemark>
    <name>南港車站</name>
    <Snippet>忠孝東路七段與忠孝東路七段415巷交叉口</Snippet>
    <description><![CDATA[南港車站<br>
忠孝東路七段與忠孝東路七段415巷交叉口<br>
Nangang Rail Sta.<br>
The intersection of Sec. 7, Zhongxiao E. Rd. & Ln. 415, Sec. 7, Zhongxiao E. Rd]]></description>
    <Point>
      <coordinates>121.608202,25.05247,0.000000</coordinates>
    </Point>
  </Placemark>
  <Placemark>
    <name>民權運動公園</name>
    <Snippet>民權東路四段/新中街交叉口</Snippet>
    <description><![CDATA[民權運動公園<br>
民權東路四段/新中街交叉口<br>
MinQuan Park<br>
The intersection of Sec. 4, Mincyuan E. Rd. & Xinzhong St.]]></description>
    <Point>
      <coordinates>121.560186,25.062002,0.000000</coordinates>
    </Point>
  </Placemark>
  <Placemark>
    <name>建國長春路口</name>
    <Snippet>建國北路/長春路口(北側)</Snippet>
    <description><![CDATA[建國長春路口<br>
建國北路/長春路口(北側)<br>
Jianguo & Changchun Intersection<br>
The N. side of Jianguo N. Rd. & Changchun Rd.]]></description>
    <Point>
      <coordinates>121.536925,25.054761,0.000000</coordinates>
    </Point>
  </Placemark>
  <Placemark>
    <name>八德市場</name>
    <Snippet>建國南路一段/市民大道交叉口(北側) </Snippet>
    <description><![CDATA[八德市場<br>
建國南路一段/市民大道交叉口(北側) <br>
Bade Market<br>
The intersection of Sec.1, Jianguo S. Rd. & Civic Blvd.]]></description>
    <Point>
      <coordinates>121.536609,25.044781,0.000000</coordinates>
    </Point>
  </Placemark>
  <Placemark>
    <name>臺北市立圖書館(總館)</name>
    <Snippet>建國南路二段/建國南路二段151巷(東北側)</Snippet>
    <description><![CDATA[臺北市立圖書館(總館)<br>
建國南路二段/建國南路二段151巷(東北側)<br>
Taipei Public Library<br>
The N.E. side of Sec. 2, Jianguo S. Rd. & Ln. 151, Sec. 2, Jianguo S. Rd.]]></description>
    <Point>
      <coordinates>121.538073,25.028798,0.000000</coordinates>
    </Point>
  </Placemark>
  <Placemark>
    <name>臺北田徑場</name>
    <Snippet>敦化北路3號</Snippet>
    <description><![CDATA[臺北田徑場<br>
敦化北路3號<br>
Taipei Stadium<br>
No.3, Dunhua N. Rd.]]></description>
    <Point>
      <coordinates>121.549408,25.049505,0.000000</coordinates>
    </Point>
  </Placemark>
  <Placemark>
    <name>Y-17青少年育樂中心</name>
    <Snippet>林森南路/仁愛路一段路口(東北側)</Snippet>
    <description><![CDATA[Y-17青少年育樂中心<br>
林森南路/仁愛路一段路口(東北側)<br>
Y17 Youth Recreation Center<br>
The N.E. side of Linsen S. Rd & Sec. 1, Ren’ai Rd.(42)]]></description>
    <Point>
      <coordinates>121.522334,25.038954,0.000000</coordinates>
    </Point>
  </Placemark>
  <Placemark>
    <name>新生和平路口</name>
    <Snippet>新生南路二段/和平東路二段(東北側)</Snippet>
    <description><![CDATA[新生和平路口<br>
新生南路二段/和平東路二段(東北側)<br>
Xinsheng & Heping Intersection<br>
The N.E. side of Sec. 2, Xinsheng S. Rd. & Sec. 2, Heping E. Rd]]></description>
    <Point>
      <coordinates>121.53519,25.026217,0.000000</coordinates>
    </Point>
  </Placemark>
  <Placemark>
    <name>捷運善導寺站(1號出口)</name>
    <Snippet>天津街/忠孝東路一段(東北側)</Snippet>
    <description><![CDATA[捷運善導寺站(1號出口)<br>
天津街/忠孝東路一段(東北側)<br>
MRT Shandao Temple Sta. (Exit 1)<br>
The N.E. side of Tianjin St. & Sec. 1, Zhongxiao E. Rd.]]></description>
    <Point>
      <coordinates>121.5222,25.045267,0.000000</coordinates>
    </Point>
  </Placemark>
  <Placemark>
    <name>林森公園</name>
    <Snippet>林森北路/南京東路一段</Snippet>
    <description><![CDATA[林森公園<br>
林森北路/南京東路一段<br>
Linsen Park<br>
Linsen N. Rd. & Sec. 1, Nanjing E. Rd.]]></description>
    <Point>
      <coordinates>121.525805,25.052227,0.000000</coordinates>
    </Point>
  </Placemark>
  <Placemark>
    <name>中山行政中心</name>
    <Snippet>松江路/農安街口</Snippet>
    <description><![CDATA[中山行政中心<br>
松江路/農安街口<br>
Zhongshan Dist. Admin. Office<br>
Songjiang Rd. & Nong’an St.]]></description>
    <Point>
      <coordinates>121.533487,25.064317,0.000000</coordinates>
    </Point>
  </Placemark>
  <Placemark>
    <name>台灣科技大學</name>
    <Snippet>基隆路四段/基隆路四段73巷交叉口</Snippet>
    <description><![CDATA[台灣科技大學<br>
基隆路四段/基隆路四段73巷交叉口<br>
N.T.U.S.T<br>
The intersection of Sec. 4, Keelung Rd. & Ln. 73, Sec. 4, Keelung Rd]]></description>
    <Point>
      <coordinates>121.539723,25.0131,0.000000</coordinates>
    </Point>
  </Placemark>
  <Placemark>
    <name>南昌公園</name>
    <Snippet>和平西路一段/南昌路</Snippet>
    <description><![CDATA[南昌公園<br>
和平西路一段/南昌路<br>
Nanchang Park<br>
Sec. 1, Heping W. Rd.& Nanchang Rd.]]></description>
    <Point>
      <coordinates>121.520258,25.026827,0.000000</coordinates>
    </Point>
  </Placemark>
  <Placemark>
    <name>仁愛醫院</name>
    <Snippet>大安路一段/仁愛路四段</Snippet>
    <description><![CDATA[仁愛醫院<br>
大安路一段/仁愛路四段<br>
Taipei City Hospital Renai Branch<br>
Da’an Rd. & Sec. 4, Sinyi Rd.]]></description>
    <Point>
      <coordinates>121.545632,25.037569,0.000000</coordinates>
    </Point>
  </Placemark>
  <Placemark>
    <name>國家圖書館</name>
    <Snippet>中山南路/貴陽街口(西南側)</Snippet>
    <description><![CDATA[國家圖書館<br>
中山南路/貴陽街口(西南側)<br>
National Central Library<br>
The S.W. side of Zhongshan S. Rd. & Guiyang St.]]></description>
    <Point>
      <coordinates>121.517029,25.037773,0.000000</coordinates>
    </Point>
  </Placemark>
  <Placemark>
    <name>青年公園3號出口</name>
    <Snippet>青年路/青年路106巷(東側)</Snippet>
    <description><![CDATA[青年公園3號出口<br>
青年路/青年路106巷(東側)<br>
Youth Park Exit 3<br>
The E. side of Qingnian Rd. & Ln. 106, Qingnian Rd.]]></description>
    <Point>
      <coordinates>121.502708,25.022725,0.000000</coordinates>
    </Point>
  </Placemark>
  <Placemark>
    <name>師範大學公館校區</name>
    <Snippet>師大公館校區校門口(汀州路側)</Snippet>
    <description><![CDATA[師範大學公館校區<br>
師大公館校區校門口(汀州路側)<br>
NTNU Gongguan Campus<br>
The side of Tingzhou Rd. (National Taiwan Normal University- Gongguan Campus)]]></description>
    <Point>
      <coordinates>121.537188,25.007528,0.000000</coordinates>
    </Point>
  </Placemark>
  <Placemark>
    <name>捷運臺大醫院(4號出口)</name>
    <Snippet>公園路/襄陽路(西南側)</Snippet>
    <description><![CDATA[捷運臺大醫院(4號出口)<br>
公園路/襄陽路(西南側)<br>
MRT Nat’l Taiwan U. Hospital Sta. (Exit 4)<br>
The S.W. side of Gongyuan Rd. & Siangyang Rd.]]></description>
    <Point>
      <coordinates>121.516428,25.042973,0.000000</coordinates>
    </Point>
  </Placemark>
  <Placemark>
    <name>國興青年路口</name>
    <Snippet>國興路/青年路(西南側)</Snippet>
    <description><![CDATA[國興青年路口<br>
國興路/青年路(西南側)<br>
Guoxing & Qingnian Intersection<br>
The S.W. side of Guoxing Rd. & Qingnian Rd.]]></description>
    <Point>
      <coordinates>121.506536,25.025865,0.000000</coordinates>
    </Point>
  </Placemark>
  <Placemark>
    <name>興豐公園</name>
    <Snippet>興隆路二段123巷/興隆路二段(西北側)</Snippet>
    <description><![CDATA[興豐公園<br>
興隆路二段123巷/興隆路二段(西北側)<br>
Xingfong Park<br>
The N.W. side of Ln. 123, Sec. 2, Xinglong Rd. & Sec. 2, Xinglong Rd.]]></description>
    <Point>
      <coordinates>121.547778,24.999837,0.000000</coordinates>
    </Point>
  </Placemark>
  <Placemark>
    <name>捷運台北101/世貿站</name>
    <Snippet>莊敬路/信義線五段(東南側)</Snippet>
    <description><![CDATA[捷運台北101/世貿站<br>
莊敬路/信義線五段(東南側)<br>
MRT Taipei 101/World Trade Center Sta.<br>
The S.E. side of Zhuangjing Rd. & Sec. 5, Xinyi Rd.]]></description>
    <Point>
      <coordinates>121.561645,25.032752,0.000000</coordinates>
    </Point>
  </Placemark>
  <Placemark>
    <name>捷運信義安和站</name>
    <Snippet>通化街/信義路四段(西南側)</Snippet>
    <description><![CDATA[捷運信義安和站<br>
通化街/信義路四段(西南側)<br>
MRT Xinyi Anhe Sta.<br>
The S.W. side of Tonghua St. & Sec. 4, Ren’ai Rd., Da’an Dist.]]></description>
    <Point>
      <coordinates>121.554204,25.032985,0.000000</coordinates>
    </Point>
  </Placemark>
  <Placemark>
    <name>新生長安路口</name>
    <Snippet>新生北路一段/長安東路二段交叉口(北側)</Snippet>
    <description><![CDATA[新生長安路口<br>
新生北路一段/長安東路二段交叉口(北側)<br>
Xinsheng & Changan Intersection<br>
The intersection of Sec. 1, Xinsheng N. Rd. & Sec. 2, Chang’an E. Rd.]]></description>
    <Point>
      <coordinates>121.529346,25.048611,0.000000</coordinates>
    </Point>
  </Placemark>
  <Placemark>
    <name>酒泉延平路口</name>
    <Snippet>延平北路四段/酒泉街(西北側)</Snippet>
    <description><![CDATA[酒泉延平路口<br>
延平北路四段/酒泉街(西北側)<br>
Jiuquan & Yanping Intersection<br>
The N.W. side of Sec. 4, Yanping N. Rd. & Jiuquan St.]]></description>
    <Point>
      <coordinates>121.510195,25.072228,0.000000</coordinates>
    </Point>
  </Placemark>
  <Placemark>
    <name>信義連雲街口</name>
    <Snippet>信義路二段/連雲街(東北側)</Snippet>
    <description><![CDATA[信義連雲街口<br>
信義路二段/連雲街(東北側)<br>
Xinyi & Lianyun Intersection<br>
The N.S. side of Lianyun St. & Sec. 2, Xinyi Rd.]]></description>
    <Point>
      <coordinates>121.530547,25.033817,0.000000</coordinates>
    </Point>
  </Placemark>
  <Placemark>
    <name>基隆光復路口</name>
    <Snippet>基隆路二段/光復南路(東北側)</Snippet>
    <description><![CDATA[基隆光復路口<br>
基隆路二段/光復南路(東北側)<br>
Keelung & Guangfu Intersection<br>
The intersection of Sec. 2, Keelung Rd. & Guangfu S. Rd.]]></description>
    <Point>
      <coordinates>121.557841,25.030055,0.000000</coordinates>
    </Point>
  </Placemark>
  <Placemark>
    <name>新生長春路口</name>
    <Snippet>新生北路二段/新生北路二段68巷交叉口(新生橋下)</Snippet>
    <description><![CDATA[新生長春路口<br>
新生北路二段/新生北路二段68巷交叉口(新生橋下)<br>
Xinsheng & Changchun Intersection<br>
Under the bridge- the intersection of Sec. 2, Xinsheng N. Rd. & Ln. 68, Sec. 2, Xinsheng N. Rd.]]></description>
    <Point>
      <coordinates>121.527522,25.056387,0.000000</coordinates>
    </Point>
  </Placemark>
  <Placemark>
    <name>民生活動中心</name>
    <Snippet>民生東路五段/三民路口(西北側)</Snippet>
    <description><![CDATA[民生活動中心<br>
民生東路五段/三民路口(西北側)<br>
Minsheng Activity Center<br>
The N.W. side of Sec. 5, Minsheng E. Rd. & Sanmin Rd.]]></description>
    <Point>
      <coordinates>121.56297,25.059147,0.000000</coordinates>
    </Point>
  </Placemark>
  <Placemark>
    <name>捷運圓山站(2號出口)</name>
    <Snippet>承德路三段/庫倫街(東南側)</Snippet>
    <description><![CDATA[捷運圓山站(2號出口)<br>
承德路三段/庫倫街(東南側)<br>
MRT Yuanshan Sta. (Exit 2)<br>
The S.E. side of Sec. 3, Chengde Rd. & Kulun St.]]></description>
    <Point>
      <coordinates>121.519287,25.071824,0.000000</coordinates>
    </Point>
  </Placemark>
  <Placemark>
    <name>捷運民權西路站(3號出口)</name>
    <Snippet>民權西路70巷37號對面</Snippet>
    <description><![CDATA[捷運民權西路站(3號出口)<br>
民權西路70巷37號對面<br>
MRT Minquan W.Rd. Sta. (Exit 3)<br>
The opposite of No.37, Ln. 70, Minquan W. Rd.]]></description>
    <Point>
      <coordinates>121.520205,25.061285,0.000000</coordinates>
    </Point>
  </Placemark>
  <Placemark>
    <name>華江高中</name>
    <Snippet>東園街/東園街35巷(東北側)</Snippet>
    <description><![CDATA[華江高中<br>
東園街/東園街35巷(東北側)<br>
Huajiang High School<br>
The N.E. side of Dongyuan St. & Ln. 35, Dongyuan St.]]></description>
    <Point>
      <coordinates>121.495869,25.02751,0.000000</coordinates>
    </Point>
  </Placemark>
  <Placemark>
    <name>捷運台電大樓站(2號出口)</name>
    <Snippet>羅斯福路/辛亥路交叉口(古亭國小前)</Snippet>
    <description><![CDATA[捷運台電大樓站(2號出口)<br>
羅斯福路/辛亥路交叉口(古亭國小前)<br>
MRT Taipower Building Sta. (Exit 2)<br>
The intersection of Roosevelt Rd. & Xinhai Rd. (Gu Ting Elementary School) ]]></description>
    <Point>
      <coordinates>121.528552,25.020547,0.000000</coordinates>
    </Point>
  </Placemark>
  <Placemark>
    <name>捷運西門站(3號出口)</name>
    <Snippet>中華路一段/寶慶路(東南側)</Snippet>
    <description><![CDATA[捷運西門站(3號出口)<br>
中華路一段/寶慶路(東南側)<br>
MRT Ximen Sta. (Exit 3)<br>
The S.E. side of Sec. 1, Zhonghua Rd. & Baoqing Rd.]]></description>
    <Point>
      <coordinates>121.508693,25.041778,0.000000</coordinates>
    </Point>
  </Placemark>
  <Placemark>
    <name>捷運大安森林公園站</name>
    <Snippet>信義路三段31巷/信義路三段(南側)</Snippet>
    <description><![CDATA[捷運大安森林公園站<br>
信義路三段31巷/信義路三段(南側)<br>
MRT Daan Park Sta.<br>
The S. side of Ln. 31, Sec. 3, Xinyi Rd. & Sec. 3, Xinyi Rd.]]></description>
    <Point>
      <coordinates>121.535161,25.033156,0.000000</coordinates>
    </Point>
  </Placemark>
  <Placemark>
    <name>復華花園新城</name>
    <Snippet>西藏路115號/西藏路(東南側)</Snippet>
    <description><![CDATA[復華花園新城<br>
西藏路115號/西藏路(東南側)<br>
Fuhua Garden New Village(City)<br>
The S.E. side of No.115, Xizang Rd. & Xizang Rd.]]></description>
    <Point>
      <coordinates>121.502899,25.029705,0.000000</coordinates>
    </Point>
  </Placemark>
  <Placemark>
    <name>信義敦化路口</name>
    <Snippet>信義路四段/敦化南路一段(東北側)</Snippet>
    <description><![CDATA[信義敦化路口<br>
信義路四段/敦化南路一段(東北側)<br>
Xinyi & Dunhua Intersection<br>
The N.E. side of Sec. 4, Xinyi Rd. & Sec. 1, Dunhua S. Rd.]]></description>
    <Point>
      <coordinates>121.54911,25.033362,0.000000</coordinates>
    </Point>
  </Placemark>
  <Placemark>
    <name>民權復興路口</name>
    <Snippet>復興北路/民權東路三段(東北側)</Snippet>
    <description><![CDATA[民權復興路口<br>
復興北路/民權東路三段(東北側)<br>
Minquan & Fuxing Intersection<br>
The N.E. side of Fuxing N. Rd. & Sec. 3, Minquan E. Rd.]]></description>
    <Point>
      <coordinates>121.545138,25.062344,0.000000</coordinates>
    </Point>
  </Placemark>
  <Placemark>
    <name>捷運大安站</name>
    <Snippet>復興南路/信義路三段(西南側)</Snippet>
    <description><![CDATA[捷運大安站<br>
復興南路/信義路三段(西南側)<br>
MRT Daan Sta.<br>
The S.W. side of Fuxing S. Rd. & Sec. 3 Xinyi Rd.]]></description>
    <Point>
      <coordinates>121.543057,25.033078,0.000000</coordinates>
    </Point>
  </Placemark>
  <Placemark>
    <name>捷運象山站</name>
    <Snippet>信義路五段/信義路五段91巷(西北側)</Snippet>
    <description><![CDATA[捷運象山站<br>
信義路五段/信義路五段91巷(西北側)<br>
MRT Xiangshan Sta.<br>
The N.W. side of Sec. 5, Xinyi Rd. & Ln. 91, Sec. 5, Xinyi Rd.]]></description>
    <Point>
      <coordinates>121.571274,25.032835,0.000000</coordinates>
    </Point>
  </Placemark>
  <Placemark>
    <name>和平重慶路口</name>
    <Snippet>重慶南路三段/和平西路一段(東北側)</Snippet>
    <description><![CDATA[和平重慶路口<br>
重慶南路三段/和平西路一段(東北側)<br>
Heping Chongqing Intersection<br>
The N.E. side of Sec. 3, Chongqing S. Rd. & Sec. 1, Heping W. Rd.]]></description>
    <Point>
      <coordinates>121.516385,25.027323,0.000000</coordinates>
    </Point>
  </Placemark>
  <Placemark>
    <name>老松國小</name>
    <Snippet>康定路/桂林路(東南側)</Snippet>
    <description><![CDATA[老松國小<br>
康定路/桂林路(東南側)<br>
Laosong Elementary School<br>
The S.E. side of Kangding Rd. & Guilin Rd.]]></description>
    <Point>
      <coordinates>121.501708,25.037783,0.000000</coordinates>
    </Point>
  </Placemark>
  <Placemark>
    <name>市立美術館</name>
    <Snippet>中山北路三段/酒泉街(西南側)</Snippet>
    <description><![CDATA[市立美術館<br>
中山北路三段/酒泉街(西南側)<br>
Taipei Fine Arts Museum<br>
The S.W. side of Sec. 3, Zhongshan N. Rd. & Jiuquan St.]]></description>
    <Point>
      <coordinates>121.523268,25.070629,0.000000</coordinates>
    </Point>
  </Placemark>
  <Placemark>
    <name>開封西寧路口</name>
    <Snippet>開封街二段/西寧南路(東北側)</Snippet>
    <description><![CDATA[開封西寧路口<br>
開封街二段/西寧南路(東北側)<br>
Kaifong & Xining Intersection<br>
The N.E. side of Sec. 2, Kaifeng St. & Xining S. Rd.]]></description>
    <Point>
      <coordinates>121.507169,25.046618,0.000000</coordinates>
    </Point>
  </Placemark>
  <Placemark>
    <name>吳興公車總站</name>
    <Snippet>松仁路/吳興街交叉口</Snippet>
    <description><![CDATA[吳興公車總站<br>
松仁路/吳興街交叉口<br>
Wu Xing Bus Station.<br>
The intersection of Songren Rd. & Wuxing St.]]></description>
    <Point>
      <coordinates>121.569836,25.023877,0.000000</coordinates>
    </Point>
  </Placemark>
  <Placemark>
    <name>捷運景美站</name>
    <Snippet>羅斯福路六段/景中街交叉口(東北側)</Snippet>
    <description><![CDATA[捷運景美站<br>
羅斯福路六段/景中街交叉口(東北側)<br>
MRT Jingmei Sta.<br>
The intersectionof Sec. 6, Roosevelt Rd. & Jingzhong St.]]></description>
    <Point>
      <coordinates>121.541059,24.993254,0.000000</coordinates>
    </Point>
  </Placemark>
  <Placemark>
    <name>東園國小</name>
    <Snippet>東園街/萬大路344巷(東南側)</Snippet>
    <description><![CDATA[東園國小<br>
東園街/萬大路344巷(東南側)<br>
Dongyuan Elementary School<br>
The S.E. side of Dongyuan St. & Ln. 344, Wanda Rd.]]></description>
    <Point>
      <coordinates>121.497679,25.023393,0.000000</coordinates>
    </Point>
  </Placemark>
  <Placemark>
    <name>三民公園</name>
    <Snippet>撫遠街/富錦街(東南側)</Snippet>
    <description><![CDATA[三民公園<br>
撫遠街/富錦街(東南側)<br>
Sanmin Park<br>
The S.E. side of Fuyuan St. & Fujin St.]]></description>
    <Point>
      <coordinates>121.566558,25.061567,0.000000</coordinates>
    </Point>
  </Placemark>
  <Placemark>
    <name>捷運劍潭站(2號出口)</name>
    <Snippet>基河路18號對面</Snippet>
    <description><![CDATA[捷運劍潭站(2號出口)<br>
基河路18號對面<br>
MRT Jiantan Sta. (EXIT. 2)<br>
The opposite of No.18, Jihe Rd.]]></description>
    <Point>
      <coordinates>121.524721,25.082825,0.000000</coordinates>
    </Point>
  </Placemark>
  <Placemark>
    <name>羅斯福景隆街口</name>
    <Snippet>羅斯福路六段/景隆街交叉口(東南側)</Snippet>
    <description><![CDATA[羅斯福景隆街口<br>
羅斯福路六段/景隆街交叉口(東南側)<br>
Roosevelt & Jinglong Intersection<br>
The intersection of Sec. 6, Roosevelt Rd. & Jinglong St. (the S.E. side)]]></description>
    <Point>
      <coordinates>121.540197,24.999378,0.000000</coordinates>
    </Point>
  </Placemark>
  <Placemark>
    <name>捷運雙連站(2號出口)</name>
    <Snippet>民生西路/萬全街(東北側)</Snippet>
    <description><![CDATA[捷運雙連站(2號出口)<br>
民生西路/萬全街(東北側)<br>
MRT Shuanglian Sta. (Exit 2)<br>
The N.E. side of Minsheng W. Rd. & Wanquan St.]]></description>
    <Point>
      <coordinates>121.520711,25.057866,0.000000</coordinates>
    </Point>
  </Placemark>
  <Placemark>
    <name>金山市民路口</name>
    <Snippet>金山北路/市民大道三段(南側)</Snippet>
    <description><![CDATA[金山市民路口<br>
金山北路/市民大道三段(南側)<br>
Jinshen & Civic Blvd. Intersection<br>
The S. side of Jinshan N. Rd. & Sec. 3, Civic Blvd.]]></description>
    <Point>
      <coordinates>121.530697,25.045753,0.000000</coordinates>
    </Point>
  </Placemark>
  <Placemark>
    <name>華山文創園區</name>
    <Snippet>忠孝東路二段41號前</Snippet>
    <description><![CDATA[華山文創園區<br>
忠孝東路二段41號前<br>
Huashan 1914‧Creative Park<br>
Front of No.41, Sec. 2, Zhongxiao E. Rd.]]></description>
    <Point>
      <coordinates>121.528487,25.043668,0.000000</coordinates>
    </Point>
  </Placemark>
  <Placemark>
    <name>臺北市客家文化主題公園</name>
    <Snippet>師大路/汀州路交叉口</Snippet>
    <description><![CDATA[臺北市客家文化主題公園<br>
師大路/汀州路交叉口<br>
Taipei City Hakka Cultural Park<br>
The intersection of Shida Rd. & Tingzhou Rd.]]></description>
    <Point>
      <coordinates>121.525322,25.02043,0.000000</coordinates>
    </Point>
  </Placemark>
  <Placemark>
    <name>萬大興寧街口</name>
    <Snippet>萬大路/興寧街(西南側)</Snippet>
    <description><![CDATA[萬大興寧街口<br>
萬大路/興寧街(西南側)<br>
Wanda & Xingning Intersection<br>
The S.W. side of Wanda Rd. & Xingning St.]]></description>
    <Point>
      <coordinates>121.500474,25.031974,0.000000</coordinates>
    </Point>
  </Placemark>
  <Placemark>
    <name>台北花木批發市場</name>
    <Snippet>萬盛街/興隆路一段(西北側)</Snippet>
    <description><![CDATA[台北花木批發市場<br>
萬盛街/興隆路一段(西北側)<br>
Taipei Pot Plant Auction<br>
The N.W. side of Wansheng St. Sec. 1, Xinglong Rd.]]></description>
    <Point>
      <coordinates>121.54074,25.004023,0.000000</coordinates>
    </Point>
  </Placemark>
  <Placemark>
    <name>峨嵋停車場</name>
    <Snippet>昆明街/西寧南路50巷(東南側)</Snippet>
    <description><![CDATA[峨嵋停車場<br>
昆明街/西寧南路50巷(東南側)<br>
Emei Parking Lot<br>
The S.E. side of Kunming St. & Ln. 50, Xining S. Rd. ]]></description>
    <Point>
      <coordinates>121.505409,25.044412,0.000000</coordinates>
    </Point>
  </Placemark>
  <Placemark>
    <name>西園艋舺路口</name>
    <Snippet>西園路二段/艋舺大道(西南側)</Snippet>
    <description><![CDATA[西園艋舺路口<br>
西園路二段/艋舺大道(西南側)<br>
Xiyuan & Bangka Intersection<br>
The S.W. side of Sec. 2, Xiyuan Rd. & Bangka Blvd.]]></description>
    <Point>
      <coordinates>121.497674,25.032932,0.000000</coordinates>
    </Point>
  </Placemark>
  <Placemark>
    <name>捷運小南門站(1號出口)</name>
    <Snippet>博愛路/愛國西路交叉口(西北側)</Snippet>
    <description><![CDATA[捷運小南門站(1號出口)<br>
博愛路/愛國西路交叉口(西北側)<br>
MRT Xiaonanmen Sta. (Exit 1)<br>
The intersection of Bo’ai Rd. & Aiguo W. Rd.]]></description>
    <Point>
      <coordinates>121.509422,25.036402,0.000000</coordinates>
    </Point>
  </Placemark>
  <Placemark>
    <name>臺北孔廟</name>
    <Snippet>哈密街59巷/哈密街(東北側)</Snippet>
    <description><![CDATA[臺北孔廟<br>
哈密街59巷/哈密街(東北側)<br>
Taipei Confucius Temple<br>
The N.E. side of Ln. 59, Hami St. & Hami St.]]></description>
    <Point>
      <coordinates>121.515843,25.073306,0.000000</coordinates>
    </Point>
  </Placemark>
  <Placemark>
    <name>林安泰古厝</name>
    <Snippet>吉林路/民族東路(北側)</Snippet>
    <description><![CDATA[林安泰古厝<br>
吉林路/民族東路(北側)<br>
Lin An-tai Historical House<br>
The N. side of Jilin Rd. & Minzu E. Rd.]]></description>
    <Point>
      <coordinates>121.530805,25.071606,0.000000</coordinates>
    </Point>
  </Placemark>
  <Placemark>
    <name>文湖國小</name>
    <Snippet>文湖街21巷/文湖街(東北側)</Snippet>
    <description><![CDATA[文湖國小<br>
文湖街21巷/文湖街(東北側)<br>
Wenhu Elementary School<br>
The N.E. side of Ln. 21, Wenhu St. & Wenhu St.]]></description>
    <Point>
      <coordinates>121.560888,25.086376,0.000000</coordinates>
    </Point>
  </Placemark>
  <Placemark>
    <name>捷運忠孝復興站(2號出口)</name>
    <Snippet>復興南路一段/仁愛路三段123巷13弄(西北側)</Snippet>
    <description><![CDATA[捷運忠孝復興站(2號出口)<br>
復興南路一段/仁愛路三段123巷13弄(西北側)<br>
MRT Zhongxiao Fuxing Sta. (Exit. 2)<br>
The N.W. side of Sec. 1, Fuxing S. Rd. & Aly. 13, Ln. 123, Sec. 3, Ren’ai Rd.]]></description>
    <Point>
      <coordinates>121.543497,25.040184,0.000000</coordinates>
    </Point>
  </Placemark>
  <Placemark>
    <name>捷運新北投站</name>
    <Snippet>大業路/中和街交叉口</Snippet>
    <description><![CDATA[捷運新北投站<br>
大業路/中和街交叉口<br>
MRT Xinbeitou Sta.<br>
Daye Rd. & Zhonghe St.  Intersection]]></description>
    <Point>
      <coordinates>121.503124,25.137456,0.000000</coordinates>
    </Point>
  </Placemark>
  <Placemark>
    <name>仁愛逸仙路口</name>
    <Snippet>仁愛路四段/逸仙路(西北側)</Snippet>
    <description><![CDATA[仁愛逸仙路口<br>
仁愛路四段/逸仙路(西北側)<br>
Renai & Yixian Intersection<br>
Sec. 4, Ren’ai Rd. & Yixian Rd.]]></description>
    <Point>
      <coordinates>121.561178,25.037724,0.000000</coordinates>
    </Point>
  </Placemark>
  <Placemark>
    <name>蘭雅公園</name>
    <Snippet>忠誠路二段/忠誠路二段40巷(西南側)</Snippet>
    <description><![CDATA[蘭雅公園<br>
忠誠路二段/忠誠路二段40巷(西南側)<br>
Lanya Park<br>
Sec. 2, Zhongcheng Rd. & Ln. 40, Sec. 2, Zhongcheng Rd.]]></description>
    <Point>
      <coordinates>121.530386,25.109908,0.000000</coordinates>
    </Point>
  </Placemark>
  <Placemark>
    <name>臺北轉運站</name>
    <Snippet>中山北路一段/市民大道一段(西北側)</Snippet>
    <description><![CDATA[臺北轉運站<br>
中山北路一段/市民大道一段(西北側)<br>
Taipei Bus Sta.<br>
Sec. 1, Zhongshan N. Rd. & Sec. 1, Civic Blvd.]]></description>
    <Point>
      <coordinates>121.520526,25.048222,0.000000</coordinates>
    </Point>
  </Placemark>
  <Placemark>
    <name>福林公園</name>
    <Snippet>志成街/中正路(南側)</Snippet>
    <description><![CDATA[福林公園<br>
志成街/中正路(南側)<br>
Zhicheng St. & Zhongzheng Rd.<br>
Zhicheng St. & Zhongzheng Rd.]]></description>
    <Point>
      <coordinates>121.530215,25.096122,0.000000</coordinates>
    </Point>
  </Placemark>
  <Placemark>
    <name>捷運北投站</name>
    <Snippet>光明路2 巷/光明路交叉口</Snippet>
    <description><![CDATA[捷運北投站<br>
光明路2 巷/光明路交叉口<br>
MRT Beitou Sta.<br>
Ln. 2, Guangming Rd. & Guangming Rd.  Intersection]]></description>
    <Point>
      <coordinates>121.498618,25.132581,0.000000</coordinates>
    </Point>
  </Placemark>
  <Placemark>
    <name>大業大同街口</name>
    <Snippet>大業路/大同街口</Snippet>
    <description><![CDATA[大業大同街口<br>
大業路/大同街口<br>
Daye & Datong Intersection<br>
Daye Rd. & Datong St.  Intersection]]></description>
    <Point>
      <coordinates>121.499152,25.136929,0.000000</coordinates>
    </Point>
  </Placemark>
  <Placemark>
    <name>捷運劍南路站(2號出口)</name>
    <Snippet>敬業二路/植福路(東北側)</Snippet>
    <description><![CDATA[捷運劍南路站(2號出口)<br>
敬業二路/植福路(東北側)<br>
MRT Jiannan Rd. Sta. (Exit 2)<br>
Jingye 2nd Rd. & Zhifu Rd.]]></description>
    <Point>
      <coordinates>121.555116,25.08418,0.000000</coordinates>
    </Point>
  </Placemark>
  <Placemark>
    <name>捷運龍山寺站(1號出口)</name>
    <Snippet>和平西路三段/和平西路三段109巷(西北側)</Snippet>
    <description><![CDATA[捷運龍山寺站(1號出口)<br>
和平西路三段/和平西路三段109巷(西北側)<br>
MRT Longshan Temple Sta. (Exit. 1)<br>
Sec. 3, Heping W. Rd. & Ln. 109, Sec. 3, Heping W. Rd.]]></description>
    <Point>
      <coordinates>121.50026,25.035479,0.000000</coordinates>
    </Point>
  </Placemark>
  <Placemark>
    <name>龍江南京路口</name>
    <Snippet>龍江路110號對面停車場</Snippet>
    <description><![CDATA[龍江南京路口<br>
龍江路110號對面停車場<br>
Longjiang & Nanjing Intersection<br>
No.100, Longjiang Rd.]]></description>
    <Point>
      <coordinates>121.540568,25.05298,0.000000</coordinates>
    </Point>
  </Placemark>
  <Placemark>
    <name>捷運港墘站(2號出口)</name>
    <Snippet>內湖路一段/港墘路(東南側)</Snippet>
    <description><![CDATA[捷運港墘站(2號出口)<br>
內湖路一段/港墘路(東南側)<br>
MRT Gangqian Sta. (Exit 2)<br>
]]></description>
    <Point>
      <coordinates>121.575458,25.079681,0.000000</coordinates>
    </Point>
  </Placemark>
  <Placemark>
    <name>天母運動公園</name>
    <Snippet>忠誠路二段/忠誠路二段207巷(東南側)</Snippet>
    <description><![CDATA[天母運動公園<br>
忠誠路二段/忠誠路二段207巷(東南側)<br>
Tienmu Sports Park<br>
Sec.2,Zhongcheng Rd./Ln.207,Sec.2,Zhongcheng Rd.]]></description>
    <Point>
      <coordinates>121.534136,25.116325,0.000000</coordinates>
    </Point>
  </Placemark>
  <Placemark>
    <name>振華公園</name>
    <Snippet>振華街36號對面</Snippet>
    <description><![CDATA[振華公園<br>
振華街36號對面<br>
Zenhua Park<br>
No.36, Zhenhua St.]]></description>
    <Point>
      <coordinates>121.518163,25.115863,0.000000</coordinates>
    </Point>
  </Placemark>
  <Placemark>
    <name>華西公園</name>
    <Snippet>華西街/桂林路(東北側)</Snippet>
    <description><![CDATA[華西公園<br>
華西街/桂林路(東北側)<br>
Huaxi Park<br>
Huaxi St. & Guilin Rd.]]></description>
    <Point>
      <coordinates>121.498495,25.038609,0.000000</coordinates>
    </Point>
  </Placemark>
  <Placemark>
    <name>敦化基隆路口</name>
    <Snippet>敦化南路二段/基隆路二段交叉口</Snippet>
    <description><![CDATA[敦化基隆路口<br>
敦化南路二段/基隆路二段交叉口<br>
Dunhua & Keelung Intersection<br>
Sec. 2, Dunhua S. Rd. & Sec. 2, Keelung Rd.]]></description>
    <Point>
      <coordinates>121.548336,25.022073,0.000000</coordinates>
    </Point>
  </Placemark>
  <Placemark>
    <name>東湖國中</name>
    <Snippet>康樂街/康樂街125巷(東南側)</Snippet>
    <description><![CDATA[東湖國中<br>
康樂街/康樂街125巷(東南側)<br>
Donghu Junior High School<br>
Kangle St./Ln. 125, Kangle St.]]></description>
    <Point>
      <coordinates>121.619521,25.073277,0.000000</coordinates>
    </Point>
  </Placemark>
  <Placemark>
    <name>成功國宅</name>
    <Snippet>四維路198巷/和平東路三段1巷</Snippet>
    <description><![CDATA[成功國宅<br>
四維路198巷/和平東路三段1巷<br>
Chengong Public Housing<br>
Ln. 198, Siwei Rd./Ln. 1, Sec. 3, Heping E. Rd]]></description>
    <Point>
      <coordinates>121.546726,25.026808,0.000000</coordinates>
    </Point>
  </Placemark>
  <Placemark>
    <name>捷運文德站(2號出口)</name>
    <Snippet>文德路220巷/文德路(西南側)</Snippet>
    <description><![CDATA[捷運文德站(2號出口)<br>
文德路220巷/文德路(西南側)<br>
MRT Wende Sta. (Exit 2)<br>
Ln. 220, Wende Rd./Wende Rd.]]></description>
    <Point>
      <coordinates>121.585264,25.078292,0.000000</coordinates>
    </Point>
  </Placemark>
  <Placemark>
    <name>羅斯福寧波東街口</name>
    <Snippet>羅斯福路一段/寧波東街(東南側)</Snippet>
    <description><![CDATA[羅斯福寧波東街口<br>
羅斯福路一段/寧波東街(東南側)<br>
Roosevelt & Ningbo E. St. Intersection<br>
Sec. 1, Roosevelt Rd. & Ningbo E. St.]]></description>
    <Point>
      <coordinates>121.519411,25.031445,0.000000</coordinates>
    </Point>
  </Placemark>
  <Placemark>
    <name>洲子二號公園</name>
    <Snippet>瑞光路500號對面</Snippet>
    <description><![CDATA[洲子二號公園<br>
瑞光路500號對面<br>
Zhouzhi Park No.2<br>
Opposite to the parking space No.500, Ruiguang Rd.]]></description>
    <Point>
      <coordinates>121.568688,25.079322,0.000000</coordinates>
    </Point>
  </Placemark>
  <Placemark>
    <name>羅斯福新生南路口</name>
    <Snippet>羅斯福路四段/新生南路三段交叉口</Snippet>
    <description><![CDATA[羅斯福新生南路口<br>
羅斯福路四段/新生南路三段交叉口<br>
@Roosevelt & Xinsheng S. Intersection<br>
Sec. 4, Roosevelt Rd./Sec. 3, Xinsheng S. Rd.]]></description>
    <Point>
      <coordinates>121.533175,25.0160308,0.000000</coordinates>
    </Point>
  </Placemark>
  <Placemark>
    <name>蘭興公園</name>
    <Snippet>中山北路六段/士東路(西北側)</Snippet>
    <description><![CDATA[蘭興公園<br>
中山北路六段/士東路(西北側)<br>
@Lanxing Park<br>
Sec.6, Zhongshan N. Rd / Shidong Rd]]></description>
    <Point>
      <coordinates>121.525888,25.111839,0.000000</coordinates>
    </Point>
  </Placemark>
  <Placemark>
    <name>捷運芝山站(2號出口)</name>
    <Snippet>福華路/福華路162巷(東南側)</Snippet>
    <description><![CDATA[捷運芝山站(2號出口)<br>
福華路/福華路162巷(東南側)<br>
MRT Zhishan Sta. (Exit 2)<br>
Fuhua Rd. / Ln. 162, Fuhua Rd.]]></description>
    <Point>
      <coordinates>121.522629,25.10336,0.000000</coordinates>
    </Point>
  </Placemark>
  <Placemark>
    <name>捷運石牌站(2號出口)</name>
    <Snippet>東華街一段/裕民二路(西側)	</Snippet>
    <description><![CDATA[捷運石牌站(2號出口)<br>
東華街一段/裕民二路(西側)	<br>
@MRT Shipai Sta. (Exit 2)<br>
Sec. 1, Donghua St. / Yumin 2nd Rd.]]></description>
    <Point>
      <coordinates>121.515677,25.114513,0.000000</coordinates>
    </Point>
  </Placemark>
  <Placemark>
    <name>國立臺北護理健康大學</name>
    <Snippet>石牌路二段130巷/石牌路二段(東南側)</Snippet>
    <description><![CDATA[國立臺北護理健康大學<br>
石牌路二段130巷/石牌路二段(東南側)<br>
@NTUNHS<br>
Ln. 130, Sec. 2, Shipai Rd. / Sec. 2, Shipai Rd.]]></description>
    <Point>
      <coordinates>121.517512,25.118049,0.000000</coordinates>
    </Point>
  </Placemark>
  <Placemark>
    <name>國防大學</name>
    <Snippet>中央北路二段/豐年路二段交叉口</Snippet>
    <description><![CDATA[國防大學<br>
中央北路二段/豐年路二段交叉口<br>
Nat’l Defense U.<br>
Sec. 2, Zhongyang N. Rd. / Sec. 2, Fengnian Rd.]]></description>
    <Point>
      <coordinates>121.493066,25.137976,0.000000</coordinates>
    </Point>
  </Placemark>
  <Placemark>
    <name>捷運永春站(2號出口)</name>
    <Snippet>忠孝東路五段420號旁(東側巷道上)</Snippet>
    <description><![CDATA[捷運永春站(2號出口)<br>
忠孝東路五段420號旁(東側巷道上)<br>
MRT Yongchun Sta. (Exit 2)	<br>
No.420, Sec. 5, Zhongxiao E. Rd.]]></description>
    <Point>
      <coordinates>121.575372,25.040558,0.000000</coordinates>
    </Point>
  </Placemark>
  <Placemark>
    <name>永樂市場</name>
    <Snippet>民樂街/南京西路233巷(西北側)</Snippet>
    <description><![CDATA[永樂市場<br>
民樂街/南京西路233巷(西北側)<br>
Yongle Market<br>
Minle St., Datong Dist./Ln. 233, Nanjing W. Rd.]]></description>
    <Point>
      <coordinates>121.510549,25.054501,0.000000</coordinates>
    </Point>
  </Placemark>
  <Placemark>
    <name>捷運大橋頭站(2號出口)</name>
    <Snippet>民權西路/重慶北路三段(東北側)</Snippet>
    <description><![CDATA[捷運大橋頭站(2號出口)<br>
民權西路/重慶北路三段(東北側)<br>
MRT Daqiaotou Sta. (Exit 2)<br>
Minquan W. Rd./ Sec. 3, Chongqing N. Rd.]]></description>
    <Point>
      <coordinates>121.512909,25.063404,0.000000</coordinates>
    </Point>
  </Placemark>
  <Placemark>
    <name>文山行政中心</name>
    <Snippet>木柵路三段220號前</Snippet>
    <description><![CDATA[文山行政中心<br>
木柵路三段220號前<br>
Wenshan Dist. Admin. Center<br>
No.220, Sec. 3, Muzha Rd.]]></description>
    <Point>
      <coordinates>121.569984,24.989902,0.000000</coordinates>
    </Point>
  </Placemark>
  <Placemark>
    <name>捷運木柵站</name>
    <Snippet>木柵路四段82巷18號前(捷運橋樑下)</Snippet>
    <description><![CDATA[捷運木柵站<br>
木柵路四段82巷18號前(捷運橋樑下)<br>
MRT Muzha Sta.<br>
No.18, Ln. 82, Sec. 4, Muzha Rd.]]></description>
    <Point>
      <coordinates>121.574214,24.997747,0.000000</coordinates>
    </Point>
  </Placemark>
  <Placemark>
    <name>捷運動物園站(2號出口)</name>
    <Snippet>新光路二段28號前</Snippet>
    <description><![CDATA[捷運動物園站(2號出口)<br>
新光路二段28號前<br>
MRT Taipei Zoo Sta. (Exit 2)<br>
No.28, Sec. 2, Xinguang Rd.]]></description>
    <Point>
      <coordinates>121.578752,24.997659,0.000000</coordinates>
    </Point>
  </Placemark>
  <Placemark>
    <name>國立政治大學</name>
    <Snippet>萬壽路16巷6號前</Snippet>
    <description><![CDATA[國立政治大學<br>
萬壽路16巷6號前<br>
Nat’l Chengchi U.<br>
No.6, Ln. 16, Wanshou Rd.]]></description>
    <Point>
      <coordinates>121.576536,24.988363,0.000000</coordinates>
    </Point>
  </Placemark>
  <Placemark>
    <name>樹德公園</name>
    <Snippet>大龍街/大龍街85巷(東北側)</Snippet>
    <description><![CDATA[樹德公園<br>
大龍街/大龍街85巷(東北側)<br>
Shude Park<br>
Dalong St. / Ln. 85, Dalong St.]]></description>
    <Point>
      <coordinates>121.516149,25.066688,0.000000</coordinates>
    </Point>
  </Placemark>
  <Placemark>
    <name>捷運士林站(2號出口)</name>
    <Snippet>中正路247巷/中山北路五段505巷(東南側)</Snippet>
    <description><![CDATA[捷運士林站(2號出口)<br>
中正路247巷/中山北路五段505巷(東南側)<br>
MRT Shilin Sta. (Exit 2)<br>
Ln. 247, Zhongzheng Rd. / Ln. 505, Sec. 5, Zhongshan N. Rd.]]></description>
    <Point>
      <coordinates>121.526556,25.092546,0.000000</coordinates>
    </Point>
  </Placemark>
  <Placemark>
    <name>士林運動中心</name>
    <Snippet>承德路四段/大南路(東北側)</Snippet>
    <description><![CDATA[士林運動中心<br>
承德路四段/大南路(東北側)<br>
Shilin Sports Center<br>
Sec. 4, Chengde Rd./Danan Rd.]]></description>
    <Point>
      <coordinates>121.521814,25.089175,0.000000</coordinates>
    </Point>
  </Placemark>
  <Placemark>
    <name>捷運明德站</name>
    <Snippet>致遠一路一段46巷/西安街一段(東南側)</Snippet>
    <description><![CDATA[捷運明德站<br>
致遠一路一段46巷/西安街一段(東南側)<br>
MRT Mingde Sta.<br>
Ln. 46, Sec. 1, Zhiyuan 1st Rd./Sec. 1, Xi’an St.]]></description>
    <Point>
      <coordinates>121.518316,25.110331,0.000000</coordinates>
    </Point>
  </Placemark>
  <Placemark>
    <name>北投運動中心</name>
    <Snippet>石牌路一段39巷100號前</Snippet>
    <description><![CDATA[北投運動中心<br>
石牌路一段39巷100號前<br>
Beitou Sports Center<br>
No.100, Ln. 39, Sec. 1, Shipai Rd.]]></description>
    <Point>
      <coordinates>121.509621,25.116665,0.000000</coordinates>
    </Point>
  </Placemark>
  <Placemark>
    <name>松德公園</name>
    <Snippet>松德路168巷20號前</Snippet>
    <description><![CDATA[松德公園<br>
松德路168巷20號前<br>
Songde Park<br>
No.20, Ln. 168, Songde Rd.]]></description>
    <Point>
      <coordinates>121.57343,25.036568,0.000000</coordinates>
    </Point>
  </Placemark>
  <Placemark>
    <name>考試院</name>
    <Snippet>試院路(雙號)/木柵路一段(東北側)</Snippet>
    <description><![CDATA[考試院<br>
試院路(雙號)/木柵路一段(東北側)<br>
Examination Yuan<br>
Shiyuan Rd. / Sec. 1, Muzha Rd., ]]></description>
    <Point>
      <coordinates>121.549827,24.987507,0.000000</coordinates>
    </Point>
  </Placemark>
  <Placemark>
    <name>百齡國小</name>
    <Snippet>前港街100巷/前港街(北方)</Snippet>
    <description><![CDATA[百齡國小<br>
前港街100巷/前港街(北方)<br>
Bailing Elementary School<br>
Ln. 100, Qiangang St. / Qiangang St.]]></description>
    <Point>
      <coordinates>121.519175,25.08521,0.000000</coordinates>
    </Point>
  </Placemark>
  <Placemark>
    <name>蔣渭水紀念公園</name>
    <Snippet>錦西街51號對面</Snippet>
    <description><![CDATA[蔣渭水紀念公園<br>
錦西街51號對面<br>
Jiang Wei-shui Memorial Park<br>
No.51, Jinxi St., Datong Dist.]]></description>
    <Point>
      <coordinates>121.516299,25.059885,0.000000</coordinates>
    </Point>
  </Placemark>
  <Placemark>
    <name>中正基河路口</name>
    <Snippet>中正路420號前</Snippet>
    <description><![CDATA[中正基河路口<br>
中正路420號前<br>
Zhongzheng & Jihe Intersection<br>
No.420, Zhongzheng Rd.]]></description>
    <Point>
      <coordinates>121.519867,25.093396,0.000000</coordinates>
    </Point>
  </Placemark>
  <Placemark>
    <name>瑞光港墘路口</name>
    <Snippet>瑞光路/港墘路(西南側)</Snippet>
    <description><![CDATA[瑞光港墘路口<br>
瑞光路/港墘路(西南側)<br>
Ruiguang & Gangqian Intersection<br>
Ruiguang Rd. / Gangqian Rd.]]></description>
    <Point>
      <coordinates>121.57505,25.076193,0.000000</coordinates>
    </Point>
  </Placemark>
  <Placemark>
    <name>東湖國小</name>
    <Snippet>東湖路/東湖路119巷(西北側)</Snippet>
    <description><![CDATA[東湖國小<br>
東湖路/東湖路119巷(西北側)<br>
Donghu Elementary School<br>
Donghu Rd. / Ln. 119, Donghu Rd.]]></description>
    <Point>
      <coordinates>121.615938,25.068409,0.000000</coordinates>
    </Point>
  </Placemark>
  <Placemark>
    <name>麗山國小</name>
    <Snippet>內湖路一段411巷/內湖路一段411巷19弄(東北側)</Snippet>
    <description><![CDATA[麗山國小<br>
內湖路一段411巷/內湖路一段411巷19弄(東北側)<br>
Lishan Elementary School<br>
Ln. 411, Sec. 1, Neihu Rd. / Aly. 19, Ln. 411, Sec. 1, Neihu Rd.]]></description>
    <Point>
      <coordinates>121.571467,25.082703,0.000000</coordinates>
    </Point>
  </Placemark>
  <Placemark>
    <name>捷運中山站(2號出口)</name>
    <Snippet>南京西路/南京西路25巷(東北側)</Snippet>
    <description><![CDATA[捷運中山站(2號出口)<br>
南京西路/南京西路25巷(東北側)<br>
MRT Zhongshan Sta. (Exit 2)<br>
Nanjing W. Rd. / Ln. 25, Nanjing W. Rd.]]></description>
    <Point>
      <coordinates>121.52029,25.053082,0.000000</coordinates>
    </Point>
  </Placemark>
  <Placemark>
    <name>大豐公園</name>
    <Snippet>磺港路/大興街(東北側)</Snippet>
    <description><![CDATA[大豐公園<br>
磺港路/大興街(東北側)<br>
Huanggang Rd. / Daxing St.<br>
Huanggang Rd. / Daxing St.]]></description>
    <Point>
      <coordinates>121.503768,25.131143,0.000000</coordinates>
    </Point>
  </Placemark>
  <Placemark>
    <name>捷運中山國小站(4號出口)</name>
    <Snippet>民權東路一段/新生北路三段(北側)(新生高架橋下)</Snippet>
    <description><![CDATA[捷運中山國小站(4號出口)<br>
民權東路一段/新生北路三段(北側)(新生高架橋下)<br>
MRT Zhongshan Elementary School(Exit.4)<br>
Sec. 1, Minquan E. Rd./Sec. 3, Xinsheng N. Rd]]></description>
    <Point>
      <coordinates>121.52772,25.062924,0.000000</coordinates>
    </Point>
  </Placemark>
  <Placemark>
    <name>大鵬華城</name>
    <Snippet>新北市新店區中正路700巷3號</Snippet>
    <description><![CDATA[大鵬華城<br>
新北市新店區中正路700巷3號<br>
Dapeng Community<br>
No. 3, Lane 700 Chung Cheng Road, Xindian District]]></description>
    <Point>
      <coordinates>121.53398,24.99116,0.000000</coordinates>
    </Point>
  </Placemark>
  <Placemark>
    <name>汐止火車站</name>
    <Snippet>南昌街/新昌路口(西側廣場)</Snippet>
    <description><![CDATA[汐止火車站<br>
南昌街/新昌路口(西側廣場)<br>
Xizhi Railway Station<br>
Nanchang St./Xinchang Rd.]]></description>
    <Point>
      <coordinates>121.662748,25.068914,0.000000</coordinates>
    </Point>
  </Placemark>
  <Placemark>
    <name>汐止區公所</name>
    <Snippet>新台五路一段/仁愛路口(新台五路側汐止地政事務所前機車停車場)</Snippet>
    <description><![CDATA[汐止區公所<br>
新台五路一段/仁愛路口(新台五路側汐止地政事務所前機車停車場)<br>
Xizhi Dist. Office<br>
Sec. 1, Xintai 5th Rd./Ren’ai Rd.]]></description>
    <Point>
      <coordinates>121.658301,25.064162,0.000000</coordinates>
    </Point>
  </Placemark>
  <Placemark>
    <name>國泰綜合醫院</name>
    <Snippet>建成路78號對面停車場</Snippet>
    <description><![CDATA[國泰綜合醫院<br>
建成路78號對面停車場<br>
Cathay General Hospital<br>
No78, Jiancheng Rd]]></description>
    <Point>
      <coordinates>121.662555,25.07315,0.000000</coordinates>
    </Point>
  </Placemark>
  <Placemark>
    <name>裕隆公園</name>
    <Snippet>寶中路/品牌路口(東南側)</Snippet>
    <description><![CDATA[裕隆公園<br>
寶中路/品牌路口(東南側)<br>
Yulon Park<br>
]]></description>
    <Point>
      <coordinates>121.546319,24.979649,0.000000</coordinates>
    </Point>
  </Placemark>
  <Placemark>
    <name>捷運大坪林站</name>
    <Snippet>寶安街/寶安街58巷(西北側)</Snippet>
    <description><![CDATA[捷運大坪林站<br>
寶安街/寶安街58巷(西北側)<br>
MRT DaPingLin Station<br>
Baoan St./Ln. 58,Baoan St]]></description>
    <Point>
      <coordinates>121.541721,24.983977,0.000000</coordinates>
    </Point>
  </Placemark>
  <Placemark>
    <name>捷運市政府站(3號出口)</name>
    <Snippet>忠孝東路/松仁路(東南側)</Snippet>
    <description><![CDATA[捷運市政府站(3號出口)<br>
忠孝東路/松仁路(東南側)<br>
MRT Taipei City Hall Sta. (Exit 3)-2<br>
The S.W. side of Road Zhongxiao East Road & Road Chung Yan.]]></description>
    <Point>
      <coordinates>121.567904,25.0408578,0.000000</coordinates>
    </Point>
  </Placemark>
</Document>
</kml>
